"","service_date","from_stop_id","to_stop_id","route_id","direction_id","start_time_sec","end_time_sec","travel_time_sec","from_stop_sequence","from_stop_name","from_stop_lon","from_stop_lat","stop_sequence","stop_name","stop_lon","stop_lat"
"1","2021-10-04",70126,70144,"Green-B",1,25237,25910,673,8,"Allston Street",-71.137881,42.348649,14,"Boston University Central",-71.106902,42.350013
"2","2021-10-04",70126,70144,"Green-B",1,24638,25695,1057,8,"Allston Street",-71.137881,42.348649,14,"Boston University Central",-71.106902,42.350013
"3","2021-10-04",70126,70144,"Green-B",1,52465,53302,837,8,"Allston Street",-71.137881,42.348649,14,"Boston University Central",-71.106902,42.350013
"4","2021-10-04",70126,70144,"Green-B",1,51614,52318,704,8,"Allston Street",-71.137881,42.348649,14,"Boston University Central",-71.106902,42.350013
"5","2021-10-04",70126,70144,"Green-B",1,51398,52202,804,8,"Allston Street",-71.137881,42.348649,14,"Boston University Central",-71.106902,42.350013
"6","2021-10-04",70126,70144,"Green-B",1,51831,52661,830,8,"Allston Street",-71.137881,42.348649,14,"Boston University Central",-71.106902,42.350013
"7","2021-10-04",70126,70144,"Green-B",1,53152,53873,721,8,"Allston Street",-71.137881,42.348649,14,"Boston University Central",-71.106902,42.350013
"8","2021-10-04",70126,70144,"Green-B",1,54300,55394,1094,8,"Allston Street",-71.137881,42.348649,14,"Boston University Central",-71.106902,42.350013
"9","2021-10-04",70126,70144,"Green-B",1,53496,54295,799,8,"Allston Street",-71.137881,42.348649,14,"Boston University Central",-71.106902,42.350013
"10","2021-10-04",70126,70144,"Green-B",1,53926,54635,709,8,"Allston Street",-71.137881,42.348649,14,"Boston University Central",-71.106902,42.350013
"11","2021-10-04",70126,70144,"Green-B",1,87261,87724,463,8,"Allston Street",-71.137881,42.348649,14,"Boston University Central",-71.106902,42.350013
"12","2021-10-04",70126,70144,"Green-B",1,87471,87952,481,8,"Allston Street",-71.137881,42.348649,14,"Boston University Central",-71.106902,42.350013
"13","2021-10-04",70126,70144,"Green-B",1,86513,87185,672,8,"Allston Street",-71.137881,42.348649,14,"Boston University Central",-71.106902,42.350013
"14","2021-10-04",70126,70144,"Green-B",1,87259,87722,463,8,"Allston Street",-71.137881,42.348649,14,"Boston University Central",-71.106902,42.350013
"15","2021-10-04",70126,70144,"Green-B",1,88021,88490,469,8,"Allston Street",-71.137881,42.348649,14,"Boston University Central",-71.106902,42.350013
"16","2021-10-04",70126,70144,"Green-B",1,38089,38774,685,8,"Allston Street",-71.137881,42.348649,14,"Boston University Central",-71.106902,42.350013
"17","2021-10-04",70126,70144,"Green-B",1,37240,38225,985,8,"Allston Street",-71.137881,42.348649,14,"Boston University Central",-71.106902,42.350013
"18","2021-10-04",70126,70144,"Green-B",1,38303,38968,665,8,"Allston Street",-71.137881,42.348649,14,"Boston University Central",-71.106902,42.350013
"19","2021-10-04",70126,70144,"Green-B",1,76805,77516,711,8,"Allston Street",-71.137881,42.348649,14,"Boston University Central",-71.106902,42.350013
"20","2021-10-04",70126,70144,"Green-B",1,78365,78948,583,8,"Allston Street",-71.137881,42.348649,14,"Boston University Central",-71.106902,42.350013
"21","2021-10-04",70126,70144,"Green-B",1,77169,77846,677,8,"Allston Street",-71.137881,42.348649,14,"Boston University Central",-71.106902,42.350013
"22","2021-10-04",70126,70144,"Green-B",1,77280,77952,672,8,"Allston Street",-71.137881,42.348649,14,"Boston University Central",-71.106902,42.350013
"23","2021-10-04",70126,70144,"Green-B",1,83961,84430,469,8,"Allston Street",-71.137881,42.348649,14,"Boston University Central",-71.106902,42.350013
"24","2021-10-04",70126,70144,"Green-B",1,82640,83342,702,8,"Allston Street",-71.137881,42.348649,14,"Boston University Central",-71.106902,42.350013
"25","2021-10-04",70126,70144,"Green-B",1,83101,83868,767,8,"Allston Street",-71.137881,42.348649,14,"Boston University Central",-71.106902,42.350013
"26","2021-10-04",70126,70144,"Green-B",1,45447,46264,817,8,"Allston Street",-71.137881,42.348649,14,"Boston University Central",-71.106902,42.350013
"27","2021-10-04",70126,70144,"Green-B",1,45014,45735,721,8,"Allston Street",-71.137881,42.348649,14,"Boston University Central",-71.106902,42.350013
"28","2021-10-04",70126,70144,"Green-B",1,44692,45624,932,8,"Allston Street",-71.137881,42.348649,14,"Boston University Central",-71.106902,42.350013
"29","2021-10-04",70126,70144,"Green-B",1,66065,66967,902,8,"Allston Street",-71.137881,42.348649,14,"Boston University Central",-71.106902,42.350013
"30","2021-10-04",70126,70144,"Green-B",1,66667,67492,825,8,"Allston Street",-71.137881,42.348649,14,"Boston University Central",-71.106902,42.350013
"31","2021-10-04",70126,70144,"Green-B",1,67512,68384,872,8,"Allston Street",-71.137881,42.348649,14,"Boston University Central",-71.106902,42.350013
"32","2021-10-04",70126,70144,"Green-B",1,65830,66612,782,8,"Allston Street",-71.137881,42.348649,14,"Boston University Central",-71.106902,42.350013
"33","2021-10-04",70126,70144,"Green-B",1,68356,69155,799,8,"Allston Street",-71.137881,42.348649,14,"Boston University Central",-71.106902,42.350013
"34","2021-10-04",70126,70144,"Green-B",1,68893,69661,768,8,"Allston Street",-71.137881,42.348649,14,"Boston University Central",-71.106902,42.350013
"35","2021-10-04",70126,70144,"Green-B",1,68228,69035,807,8,"Allston Street",-71.137881,42.348649,14,"Boston University Central",-71.106902,42.350013
"36","2021-10-04",70126,70144,"Green-B",1,32806,33515,709,8,"Allston Street",-71.137881,42.348649,14,"Boston University Central",-71.106902,42.350013
"37","2021-10-04",70126,70144,"Green-B",1,31842,32744,902,8,"Allston Street",-71.137881,42.348649,14,"Boston University Central",-71.106902,42.350013
"38","2021-10-04",70126,70144,"Green-B",1,33300,34171,871,8,"Allston Street",-71.137881,42.348649,14,"Boston University Central",-71.106902,42.350013
"39","2021-10-04",70126,70144,"Green-B",1,32204,33087,883,8,"Allston Street",-71.137881,42.348649,14,"Boston University Central",-71.106902,42.350013
"40","2021-10-04",70126,70144,"Green-B",1,31958,32847,889,8,"Allston Street",-71.137881,42.348649,14,"Boston University Central",-71.106902,42.350013
"41","2021-10-04",70126,70144,"Green-B",1,21873,22624,751,8,"Allston Street",-71.137881,42.348649,14,"Boston University Central",-71.106902,42.350013
"42","2021-10-04",70126,70144,"Green-B",1,21142,21738,596,8,"Allston Street",-71.137881,42.348649,14,"Boston University Central",-71.106902,42.350013
"43","2021-10-04",70126,70144,"Green-B",1,22482,23179,697,8,"Allston Street",-71.137881,42.348649,14,"Boston University Central",-71.106902,42.350013
"44","2021-10-04",70126,70144,"Green-B",1,22728,23305,577,8,"Allston Street",-71.137881,42.348649,14,"Boston University Central",-71.106902,42.350013
"45","2021-10-04",70126,70144,"Green-B",1,61864,62667,803,8,"Allston Street",-71.137881,42.348649,14,"Boston University Central",-71.106902,42.350013
"46","2021-10-04",70126,70144,"Green-B",1,60539,61333,794,8,"Allston Street",-71.137881,42.348649,14,"Boston University Central",-71.106902,42.350013
"47","2021-10-04",70126,70144,"Green-B",1,61273,62223,950,8,"Allston Street",-71.137881,42.348649,14,"Boston University Central",-71.106902,42.350013
"48","2021-10-04",70126,70144,"Green-B",1,60806,61683,877,8,"Allston Street",-71.137881,42.348649,14,"Boston University Central",-71.106902,42.350013
"49","2021-10-04",70126,70144,"Green-B",1,47115,47926,811,8,"Allston Street",-71.137881,42.348649,14,"Boston University Central",-71.106902,42.350013
"50","2021-10-04",70126,70144,"Green-B",1,46879,47800,921,8,"Allston Street",-71.137881,42.348649,14,"Boston University Central",-71.106902,42.350013
"51","2021-10-04",70126,70144,"Green-B",1,45889,46917,1028,8,"Allston Street",-71.137881,42.348649,14,"Boston University Central",-71.106902,42.350013
"52","2021-10-04",70126,70144,"Green-B",1,48861,49690,829,8,"Allston Street",-71.137881,42.348649,14,"Boston University Central",-71.106902,42.350013
"53","2021-10-04",70126,70144,"Green-B",1,47665,49041,1376,8,"Allston Street",-71.137881,42.348649,14,"Boston University Central",-71.106902,42.350013
"54","2021-10-04",70126,70144,"Green-B",1,49414,50328,914,8,"Allston Street",-71.137881,42.348649,14,"Boston University Central",-71.106902,42.350013
"55","2021-10-04",70126,70144,"Green-B",1,49089,50116,1027,8,"Allston Street",-71.137881,42.348649,14,"Boston University Central",-71.106902,42.350013
"56","2021-10-04",70126,70144,"Green-B",1,35563,36460,897,8,"Allston Street",-71.137881,42.348649,14,"Boston University Central",-71.106902,42.350013
"57","2021-10-04",70126,70144,"Green-B",1,36453,37247,794,8,"Allston Street",-71.137881,42.348649,14,"Boston University Central",-71.106902,42.350013
"58","2021-10-04",70126,70144,"Green-B",1,36661,37677,1016,8,"Allston Street",-71.137881,42.348649,14,"Boston University Central",-71.106902,42.350013
"59","2021-10-04",70126,70144,"Green-B",1,35682,36699,1017,8,"Allston Street",-71.137881,42.348649,14,"Boston University Central",-71.106902,42.350013
"60","2021-10-04",70126,70144,"Green-B",1,71895,72671,776,8,"Allston Street",-71.137881,42.348649,14,"Boston University Central",-71.106902,42.350013
"61","2021-10-04",70126,70144,"Green-B",1,72660,73423,763,8,"Allston Street",-71.137881,42.348649,14,"Boston University Central",-71.106902,42.350013
"62","2021-10-04",70126,70144,"Green-B",1,72970,73655,685,8,"Allston Street",-71.137881,42.348649,14,"Boston University Central",-71.106902,42.350013
"63","2021-10-04",70126,70144,"Green-B",1,58510,59357,847,8,"Allston Street",-71.137881,42.348649,14,"Boston University Central",-71.106902,42.350013
"64","2021-10-04",70126,70144,"Green-B",1,57312,58142,830,8,"Allston Street",-71.137881,42.348649,14,"Boston University Central",-71.106902,42.350013
"65","2021-10-04",70126,70144,"Green-B",1,57666,58832,1166,8,"Allston Street",-71.137881,42.348649,14,"Boston University Central",-71.106902,42.350013
"66","2021-10-04",70126,70144,"Green-B",1,69581,70344,763,8,"Allston Street",-71.137881,42.348649,14,"Boston University Central",-71.106902,42.350013
"67","2021-10-04",70126,70144,"Green-B",1,71124,71785,661,8,"Allston Street",-71.137881,42.348649,14,"Boston University Central",-71.106902,42.350013
"68","2021-10-04",70126,70144,"Green-B",1,70649,71418,769,8,"Allston Street",-71.137881,42.348649,14,"Boston University Central",-71.106902,42.350013
"69","2021-10-04",70126,70144,"Green-B",1,69988,70691,703,8,"Allston Street",-71.137881,42.348649,14,"Boston University Central",-71.106902,42.350013
"70","2021-10-04",70126,70144,"Green-B",1,75402,76179,777,8,"Allston Street",-71.137881,42.348649,14,"Boston University Central",-71.106902,42.350013
"71","2021-10-04",70126,70144,"Green-B",1,76033,76640,607,8,"Allston Street",-71.137881,42.348649,14,"Boston University Central",-71.106902,42.350013
"72","2021-10-04",70126,70144,"Green-B",1,75045,75839,794,8,"Allston Street",-71.137881,42.348649,14,"Boston University Central",-71.106902,42.350013
"73","2021-10-04",70126,70144,"Green-B",1,63791,64598,807,8,"Allston Street",-71.137881,42.348649,14,"Boston University Central",-71.106902,42.350013
"74","2021-10-04",70126,70144,"Green-B",1,63318,64079,761,8,"Allston Street",-71.137881,42.348649,14,"Boston University Central",-71.106902,42.350013
"75","2021-10-04",70126,70144,"Green-B",1,62708,63622,914,8,"Allston Street",-71.137881,42.348649,14,"Boston University Central",-71.106902,42.350013
"76","2021-10-04",70126,70144,"Green-B",1,62233,63099,866,8,"Allston Street",-71.137881,42.348649,14,"Boston University Central",-71.106902,42.350013
"77","2021-10-04",70126,70144,"Green-B",1,64388,65067,679,8,"Allston Street",-71.137881,42.348649,14,"Boston University Central",-71.106902,42.350013
"78","2021-10-04",70126,70144,"Green-B",1,64749,65957,1208,8,"Allston Street",-71.137881,42.348649,14,"Boston University Central",-71.106902,42.350013
"79","2021-10-04",70126,70144,"Green-B",1,34237,35048,811,8,"Allston Street",-71.137881,42.348649,14,"Boston University Central",-71.106902,42.350013
"80","2021-10-04",70126,70144,"Green-B",1,34477,35378,901,8,"Allston Street",-71.137881,42.348649,14,"Boston University Central",-71.106902,42.350013
"81","2021-10-04",70126,70144,"Green-B",1,34856,35710,854,8,"Allston Street",-71.137881,42.348649,14,"Boston University Central",-71.106902,42.350013
"82","2021-10-04",70126,70144,"Green-B",1,34126,34826,700,8,"Allston Street",-71.137881,42.348649,14,"Boston University Central",-71.106902,42.350013
"83","2021-10-04",70126,70144,"Green-B",1,43699,44388,689,8,"Allston Street",-71.137881,42.348649,14,"Boston University Central",-71.106902,42.350013
"84","2021-10-04",70126,70144,"Green-B",1,42933,43842,909,8,"Allston Street",-71.137881,42.348649,14,"Boston University Central",-71.106902,42.350013
"85","2021-10-04",70126,70144,"Green-B",1,44026,44712,686,8,"Allston Street",-71.137881,42.348649,14,"Boston University Central",-71.106902,42.350013
"86","2021-10-04",70126,70144,"Green-B",1,43148,44061,913,8,"Allston Street",-71.137881,42.348649,14,"Boston University Central",-71.106902,42.350013
"87","2021-10-04",70126,70144,"Green-B",1,42596,43420,824,8,"Allston Street",-71.137881,42.348649,14,"Boston University Central",-71.106902,42.350013
"88","2021-10-04",70126,70144,"Green-B",1,25956,26767,811,8,"Allston Street",-71.137881,42.348649,14,"Boston University Central",-71.106902,42.350013
"89","2021-10-04",70126,70144,"Green-B",1,25844,26583,739,8,"Allston Street",-71.137881,42.348649,14,"Boston University Central",-71.106902,42.350013
"90","2021-10-04",70126,70144,"Green-B",1,50741,51666,925,8,"Allston Street",-71.137881,42.348649,14,"Boston University Central",-71.106902,42.350013
"91","2021-10-04",70126,70144,"Green-B",1,49965,50656,691,8,"Allston Street",-71.137881,42.348649,14,"Boston University Central",-71.106902,42.350013
"92","2021-10-04",70126,70144,"Green-B",1,50296,50981,685,8,"Allston Street",-71.137881,42.348649,14,"Boston University Central",-71.106902,42.350013
"93","2021-10-04",70126,70144,"Green-B",1,26934,27685,751,8,"Allston Street",-71.137881,42.348649,14,"Boston University Central",-71.106902,42.350013
"94","2021-10-04",70126,70144,"Green-B",1,26680,27359,679,8,"Allston Street",-71.137881,42.348649,14,"Boston University Central",-71.106902,42.350013
"95","2021-10-04",70126,70144,"Green-B",1,27648,28453,805,8,"Allston Street",-71.137881,42.348649,14,"Boston University Central",-71.106902,42.350013
"96","2021-10-04",70126,70144,"Green-B",1,27290,28120,830,8,"Allston Street",-71.137881,42.348649,14,"Boston University Central",-71.106902,42.350013
"97","2021-10-04",70126,70144,"Green-B",1,73835,74538,703,8,"Allston Street",-71.137881,42.348649,14,"Boston University Central",-71.106902,42.350013
"98","2021-10-04",70126,70144,"Green-B",1,74187,74867,680,8,"Allston Street",-71.137881,42.348649,14,"Boston University Central",-71.106902,42.350013
"99","2021-10-04",70126,70144,"Green-B",1,39514,40325,811,8,"Allston Street",-71.137881,42.348649,14,"Boston University Central",-71.106902,42.350013
"100","2021-10-04",70126,70144,"Green-B",1,39974,40617,643,8,"Allston Street",-71.137881,42.348649,14,"Boston University Central",-71.106902,42.350013
"101","2021-10-04",70126,70144,"Green-B",1,40615,41313,698,8,"Allston Street",-71.137881,42.348649,14,"Boston University Central",-71.106902,42.350013
"102","2021-10-04",70126,70144,"Green-B",1,39327,40012,685,8,"Allston Street",-71.137881,42.348649,14,"Boston University Central",-71.106902,42.350013
"103","2021-10-04",70126,70144,"Green-B",1,41178,41972,794,8,"Allston Street",-71.137881,42.348649,14,"Boston University Central",-71.106902,42.350013
"104","2021-10-04",70126,70144,"Green-B",1,40729,41643,914,8,"Allston Street",-71.137881,42.348649,14,"Boston University Central",-71.106902,42.350013
"105","2021-10-04",70126,70144,"Green-B",1,41936,42747,811,8,"Allston Street",-71.137881,42.348649,14,"Boston University Central",-71.106902,42.350013
"106","2021-10-04",70126,70144,"Green-B",1,19958,20648,690,8,"Allston Street",-71.137881,42.348649,14,"Boston University Central",-71.106902,42.350013
"107","2021-10-04",70126,70144,"Green-B",1,20815,21512,697,8,"Allston Street",-71.137881,42.348649,14,"Boston University Central",-71.106902,42.350013
"108","2021-10-04",70126,70144,"Green-B",1,19378,19967,589,8,"Allston Street",-71.137881,42.348649,14,"Boston University Central",-71.106902,42.350013
"109","2021-10-04",70126,70144,"Green-B",1,81564,82104,540,8,"Allston Street",-71.137881,42.348649,14,"Boston University Central",-71.106902,42.350013
"110","2021-10-04",70126,70144,"Green-B",1,80912,81417,505,8,"Allston Street",-71.137881,42.348649,14,"Boston University Central",-71.106902,42.350013
"111","2021-10-04",70126,70144,"Green-B",1,29201,30104,903,8,"Allston Street",-71.137881,42.348649,14,"Boston University Central",-71.106902,42.350013
"112","2021-10-04",70126,70144,"Green-B",1,29470,30336,866,8,"Allston Street",-71.137881,42.348649,14,"Boston University Central",-71.106902,42.350013
"113","2021-10-04",70126,70144,"Green-B",1,28597,29462,865,8,"Allston Street",-71.137881,42.348649,14,"Boston University Central",-71.106902,42.350013
"114","2021-10-04",70126,70144,"Green-B",1,28121,28903,782,8,"Allston Street",-71.137881,42.348649,14,"Boston University Central",-71.106902,42.350013
"115","2021-10-04",70126,70144,"Green-B",1,28242,29115,873,8,"Allston Street",-71.137881,42.348649,14,"Boston University Central",-71.106902,42.350013
"116","2021-10-04",70126,70144,"Green-B",1,56701,57477,776,8,"Allston Street",-71.137881,42.348649,14,"Boston University Central",-71.106902,42.350013
"117","2021-10-04",70126,70144,"Green-B",1,55978,56809,831,8,"Allston Street",-71.137881,42.348649,14,"Boston University Central",-71.106902,42.350013
"118","2021-10-04",70126,70144,"Green-B",1,55377,56152,775,8,"Allston Street",-71.137881,42.348649,14,"Boston University Central",-71.106902,42.350013
"119","2021-10-04",70126,70144,"Green-B",1,55635,56382,747,8,"Allston Street",-71.137881,42.348649,14,"Boston University Central",-71.106902,42.350013
"120","2021-10-04",70126,70144,"Green-B",1,56349,57119,770,8,"Allston Street",-71.137881,42.348649,14,"Boston University Central",-71.106902,42.350013
"121","2021-10-04",70126,70144,"Green-B",1,80259,80914,655,8,"Allston Street",-71.137881,42.348649,14,"Boston University Central",-71.106902,42.350013
"122","2021-10-04",70126,70144,"Green-B",1,78918,79495,577,8,"Allston Street",-71.137881,42.348649,14,"Boston University Central",-71.106902,42.350013
"123","2021-10-04",70126,70144,"Green-B",1,79792,80459,667,8,"Allston Street",-71.137881,42.348649,14,"Boston University Central",-71.106902,42.350013
"124","2021-10-04",70126,70144,"Green-B",1,85628,86307,679,8,"Allston Street",-71.137881,42.348649,14,"Boston University Central",-71.106902,42.350013
"125","2021-10-04",70126,70144,"Green-B",1,31248,32197,949,8,"Allston Street",-71.137881,42.348649,14,"Boston University Central",-71.106902,42.350013
"126","2021-10-04",70126,70144,"Green-B",1,29921,30866,945,8,"Allston Street",-71.137881,42.348649,14,"Boston University Central",-71.106902,42.350013
"127","2021-10-04",70126,70144,"Green-B",1,31143,32092,949,8,"Allston Street",-71.137881,42.348649,14,"Boston University Central",-71.106902,42.350013
"128","2021-10-04",70126,70144,"Green-B",1,18726,19306,580,8,"Allston Street",-71.137881,42.348649,14,"Boston University Central",-71.106902,42.350013
"129","2021-10-04",70126,70144,"Green-B",1,23920,24602,682,8,"Allston Street",-71.137881,42.348649,14,"Boston University Central",-71.106902,42.350013
"130","2021-10-04",70126,70144,"Green-B",1,24200,24923,723,8,"Allston Street",-71.137881,42.348649,14,"Boston University Central",-71.106902,42.350013
"131","2021-10-04",70126,70144,"Green-B",1,23442,24171,729,8,"Allston Street",-71.137881,42.348649,14,"Boston University Central",-71.106902,42.350013
"132","2021-10-04",70126,70144,"Green-B",1,59225,60234,1009,8,"Allston Street",-71.137881,42.348649,14,"Boston University Central",-71.106902,42.350013
"133","2021-10-04",70126,70144,"Green-B",1,58979,59796,817,8,"Allston Street",-71.137881,42.348649,14,"Boston University Central",-71.106902,42.350013
"134","2021-10-04",70126,70144,"Green-B",1,59716,60660,944,8,"Allston Street",-71.137881,42.348649,14,"Boston University Central",-71.106902,42.350013
"135","2021-10-04",70126,70144,"Green-B",1,59827,60764,937,8,"Allston Street",-71.137881,42.348649,14,"Boston University Central",-71.106902,42.350013
"136","2021-10-04",70126,70144,"Green-B",1,77824,78395,571,8,"Allston Street",-71.137881,42.348649,14,"Boston University Central",-71.106902,42.350013
"137","2021-11-01",70126,70144,"Green-B",1,18834,19518,684,8,"Allston Street",-71.137881,42.348649,14,"Boston University Central",-71.106902,42.350013
"138","2021-11-01",70126,70144,"Green-B",1,24281,25160,879,8,"Allston Street",-71.137881,42.348649,14,"Boston University Central",-71.106902,42.350013
"139","2021-11-01",70126,70144,"Green-B",1,23684,24273,589,8,"Allston Street",-71.137881,42.348649,14,"Boston University Central",-71.106902,42.350013
"140","2021-11-01",70126,70144,"Green-B",1,23915,24668,753,8,"Allston Street",-71.137881,42.348649,14,"Boston University Central",-71.106902,42.350013
"141","2021-11-01",70126,70144,"Green-B",1,59074,59819,745,8,"Allston Street",-71.137881,42.348649,14,"Boston University Central",-71.106902,42.350013
"142","2021-11-01",70126,70144,"Green-B",1,58489,59492,1003,8,"Allston Street",-71.137881,42.348649,14,"Boston University Central",-71.106902,42.350013
"143","2021-11-01",70126,70144,"Green-B",1,59683,60795,1112,8,"Allston Street",-71.137881,42.348649,14,"Boston University Central",-71.106902,42.350013
"144","2021-11-01",70126,70144,"Green-B",1,59567,60427,860,8,"Allston Street",-71.137881,42.348649,14,"Boston University Central",-71.106902,42.350013
"145","2021-11-01",70126,70144,"Green-B",1,71570,72340,770,8,"Allston Street",-71.137881,42.348649,14,"Boston University Central",-71.106902,42.350013
"146","2021-11-01",70126,70144,"Green-B",1,72111,72712,601,8,"Allston Street",-71.137881,42.348649,14,"Boston University Central",-71.106902,42.350013
"147","2021-11-01",70126,70144,"Green-B",1,71420,72117,697,8,"Allston Street",-71.137881,42.348649,14,"Boston University Central",-71.106902,42.350013
"148","2021-11-01",70126,70144,"Green-B",1,28751,29544,793,8,"Allston Street",-71.137881,42.348649,14,"Boston University Central",-71.106902,42.350013
"149","2021-11-01",70126,70144,"Green-B",1,28610,29229,619,8,"Allston Street",-71.137881,42.348649,14,"Boston University Central",-71.106902,42.350013
"150","2021-11-01",70126,70144,"Green-B",1,29588,30321,733,8,"Allston Street",-71.137881,42.348649,14,"Boston University Central",-71.106902,42.350013
"151","2021-11-01",70126,70144,"Green-B",1,28129,28887,758,8,"Allston Street",-71.137881,42.348649,14,"Boston University Central",-71.106902,42.350013
"152","2021-11-01",70126,70144,"Green-B",1,29289,30004,715,8,"Allston Street",-71.137881,42.348649,14,"Boston University Central",-71.106902,42.350013
"153","2021-11-01",70126,70144,"Green-B",1,26675,27470,795,8,"Allston Street",-71.137881,42.348649,14,"Boston University Central",-71.106902,42.350013
"154","2021-11-01",70126,70144,"Green-B",1,27407,28538,1131,8,"Allston Street",-71.137881,42.348649,14,"Boston University Central",-71.106902,42.350013
"155","2021-11-01",70126,70144,"Green-B",1,26921,27901,980,8,"Allston Street",-71.137881,42.348649,14,"Boston University Central",-71.106902,42.350013
"156","2021-11-01",70126,70144,"Green-B",1,73217,73981,764,8,"Allston Street",-71.137881,42.348649,14,"Boston University Central",-71.106902,42.350013
"157","2021-11-01",70126,70144,"Green-B",1,73652,74307,655,8,"Allston Street",-71.137881,42.348649,14,"Boston University Central",-71.106902,42.350013
"158","2021-11-01",70126,70144,"Green-B",1,72951,73846,895,8,"Allston Street",-71.137881,42.348649,14,"Boston University Central",-71.106902,42.350013
"159","2021-11-01",70126,70144,"Green-B",1,39164,39916,752,8,"Allston Street",-71.137881,42.348649,14,"Boston University Central",-71.106902,42.350013
"160","2021-11-01",70126,70144,"Green-B",1,40154,40879,725,8,"Allston Street",-71.137881,42.348649,14,"Boston University Central",-71.106902,42.350013
"161","2021-11-01",70126,70144,"Green-B",1,39761,40668,907,8,"Allston Street",-71.137881,42.348649,14,"Boston University Central",-71.106902,42.350013
"162","2021-11-01",70126,70144,"Green-B",1,42044,42879,835,8,"Allston Street",-71.137881,42.348649,14,"Boston University Central",-71.106902,42.350013
"163","2021-11-01",70126,70144,"Green-B",1,41474,42311,837,8,"Allston Street",-71.137881,42.348649,14,"Boston University Central",-71.106902,42.350013
"164","2021-11-01",70126,70144,"Green-B",1,40599,41436,837,8,"Allston Street",-71.137881,42.348649,14,"Boston University Central",-71.106902,42.350013
"165","2021-11-01",70126,70144,"Green-B",1,41210,42099,889,8,"Allston Street",-71.137881,42.348649,14,"Boston University Central",-71.106902,42.350013
"166","2021-11-01",70126,70144,"Green-B",1,36427,37143,716,8,"Allston Street",-71.137881,42.348649,14,"Boston University Central",-71.106902,42.350013
"167","2021-11-01",70126,70144,"Green-B",1,35922,36715,793,8,"Allston Street",-71.137881,42.348649,14,"Boston University Central",-71.106902,42.350013
"168","2021-11-01",70126,70144,"Green-B",1,35445,36274,829,8,"Allston Street",-71.137881,42.348649,14,"Boston University Central",-71.106902,42.350013
"169","2021-11-01",70126,70144,"Green-B",1,35924,36717,793,8,"Allston Street",-71.137881,42.348649,14,"Boston University Central",-71.106902,42.350013
"170","2021-11-01",70126,70144,"Green-B",1,45211,46336,1125,8,"Allston Street",-71.137881,42.348649,14,"Boston University Central",-71.106902,42.350013
"171","2021-11-01",70126,70144,"Green-B",1,44921,45732,811,8,"Allston Street",-71.137881,42.348649,14,"Boston University Central",-71.106902,42.350013
"172","2021-11-01",70126,70144,"Green-B",1,45760,46601,841,8,"Allston Street",-71.137881,42.348649,14,"Boston University Central",-71.106902,42.350013
"173","2021-11-01",70126,70144,"Green-B",1,44480,45412,932,8,"Allston Street",-71.137881,42.348649,14,"Boston University Central",-71.106902,42.350013
"174","2021-11-01",70126,70144,"Green-B",1,66297,67152,855,8,"Allston Street",-71.137881,42.348649,14,"Boston University Central",-71.106902,42.350013
"175","2021-11-01",70126,70144,"Green-B",1,66783,67492,709,8,"Allston Street",-71.137881,42.348649,14,"Boston University Central",-71.106902,42.350013
"176","2021-11-01",70126,70144,"Green-B",1,66910,67826,916,8,"Allston Street",-71.137881,42.348649,14,"Boston University Central",-71.106902,42.350013
"177","2021-11-01",70126,70144,"Green-B",1,69029,69690,661,8,"Allston Street",-71.137881,42.348649,14,"Boston University Central",-71.106902,42.350013
"178","2021-11-01",70126,70144,"Green-B",1,68229,69148,919,8,"Allston Street",-71.137881,42.348649,14,"Boston University Central",-71.106902,42.350013
"179","2021-11-01",70126,70144,"Green-B",1,68571,69264,693,8,"Allston Street",-71.137881,42.348649,14,"Boston University Central",-71.106902,42.350013
"180","2021-11-01",70126,70144,"Green-B",1,67740,68714,974,8,"Allston Street",-71.137881,42.348649,14,"Boston University Central",-71.106902,42.350013
"181","2021-11-01",70126,70144,"Green-B",1,68875,69585,710,8,"Allston Street",-71.137881,42.348649,14,"Boston University Central",-71.106902,42.350013
"182","2021-11-01",70126,70144,"Green-B",1,69474,70159,685,8,"Allston Street",-71.137881,42.348649,14,"Boston University Central",-71.106902,42.350013
"183","2021-11-01",70126,70144,"Green-B",1,68228,69148,920,8,"Allston Street",-71.137881,42.348649,14,"Boston University Central",-71.106902,42.350013
"184","2021-11-01",70126,70144,"Green-B",1,26083,26792,709,8,"Allston Street",-71.137881,42.348649,14,"Boston University Central",-71.106902,42.350013
"185","2021-11-01",70126,70144,"Green-B",1,25728,26349,621,8,"Allston Street",-71.137881,42.348649,14,"Boston University Central",-71.106902,42.350013
"186","2021-11-01",70126,70144,"Green-B",1,24888,25597,709,8,"Allston Street",-71.137881,42.348649,14,"Boston University Central",-71.106902,42.350013
"187","2021-11-01",70126,70144,"Green-B",1,52602,53425,823,8,"Allston Street",-71.137881,42.348649,14,"Boston University Central",-71.106902,42.350013
"188","2021-11-01",70126,70144,"Green-B",1,51406,52223,817,8,"Allston Street",-71.137881,42.348649,14,"Boston University Central",-71.106902,42.350013
"189","2021-11-01",70126,70144,"Green-B",1,52263,52994,731,8,"Allston Street",-71.137881,42.348649,14,"Boston University Central",-71.106902,42.350013
"190","2021-11-01",70126,70144,"Green-B",1,51939,52678,739,8,"Allston Street",-71.137881,42.348649,14,"Boston University Central",-71.106902,42.350013
"191","2021-11-01",70126,70144,"Green-B",1,53569,54410,841,8,"Allston Street",-71.137881,42.348649,14,"Boston University Central",-71.106902,42.350013
"192","2021-11-01",70126,70144,"Green-B",1,53206,54090,884,8,"Allston Street",-71.137881,42.348649,14,"Boston University Central",-71.106902,42.350013
"193","2021-11-01",70126,70144,"Green-B",1,54521,55206,685,8,"Allston Street",-71.137881,42.348649,14,"Boston University Central",-71.106902,42.350013
"194","2021-11-01",70126,70144,"Green-B",1,53928,54752,824,8,"Allston Street",-71.137881,42.348649,14,"Boston University Central",-71.106902,42.350013
"195","2021-11-01",70126,70144,"Green-B",1,37357,38048,691,8,"Allston Street",-71.137881,42.348649,14,"Boston University Central",-71.106902,42.350013
"196","2021-11-01",70126,70144,"Green-B",1,38940,39571,631,8,"Allston Street",-71.137881,42.348649,14,"Boston University Central",-71.106902,42.350013
"197","2021-11-01",70126,70144,"Green-B",1,37843,38901,1058,8,"Allston Street",-71.137881,42.348649,14,"Boston University Central",-71.106902,42.350013
"198","2021-11-01",70126,70144,"Green-B",1,37534,38243,709,8,"Allston Street",-71.137881,42.348649,14,"Boston University Central",-71.106902,42.350013
"199","2021-11-01",70126,70144,"Green-B",1,46604,47476,872,8,"Allston Street",-71.137881,42.348649,14,"Boston University Central",-71.106902,42.350013
"200","2021-11-01",70126,70144,"Green-B",1,47080,48041,961,8,"Allston Street",-71.137881,42.348649,14,"Boston University Central",-71.106902,42.350013
"201","2021-11-01",70126,70144,"Green-B",1,47685,48586,901,8,"Allston Street",-71.137881,42.348649,14,"Boston University Central",-71.106902,42.350013
"202","2021-11-01",70126,70144,"Green-B",1,49238,50007,769,8,"Allston Street",-71.137881,42.348649,14,"Boston University Central",-71.106902,42.350013
"203","2021-11-01",70126,70144,"Green-B",1,48060,48799,739,8,"Allston Street",-71.137881,42.348649,14,"Boston University Central",-71.106902,42.350013
"204","2021-11-01",70126,70144,"Green-B",1,48762,49687,925,8,"Allston Street",-71.137881,42.348649,14,"Boston University Central",-71.106902,42.350013
"205","2021-11-01",70126,70144,"Green-B",1,48763,49683,920,8,"Allston Street",-71.137881,42.348649,14,"Boston University Central",-71.106902,42.350013
"206","2021-11-01",70126,70144,"Green-B",1,57887,58699,812,8,"Allston Street",-71.137881,42.348649,14,"Boston University Central",-71.106902,42.350013
"207","2021-11-01",70126,70144,"Green-B",1,56969,57828,859,8,"Allston Street",-71.137881,42.348649,14,"Boston University Central",-71.106902,42.350013
"208","2021-11-01",70126,70144,"Green-B",1,57293,58053,760,8,"Allston Street",-71.137881,42.348649,14,"Boston University Central",-71.106902,42.350013
"209","2021-11-01",70126,70144,"Green-B",1,61730,62846,1116,8,"Allston Street",-71.137881,42.348649,14,"Boston University Central",-71.106902,42.350013
"210","2021-11-01",70126,70144,"Green-B",1,62225,62992,767,8,"Allston Street",-71.137881,42.348649,14,"Boston University Central",-71.106902,42.350013
"211","2021-11-01",70126,70144,"Green-B",1,60675,61566,891,8,"Allston Street",-71.137881,42.348649,14,"Boston University Central",-71.106902,42.350013
"212","2021-11-01",70126,70144,"Green-B",1,61128,62000,872,8,"Allston Street",-71.137881,42.348649,14,"Boston University Central",-71.106902,42.350013
"213","2021-11-01",70126,70144,"Green-B",1,62701,63518,817,8,"Allston Street",-71.137881,42.348649,14,"Boston University Central",-71.106902,42.350013
"214","2021-11-01",70126,70144,"Green-B",1,63433,64100,667,8,"Allston Street",-71.137881,42.348649,14,"Boston University Central",-71.106902,42.350013
"215","2021-11-01",70126,70144,"Green-B",1,62945,63642,697,8,"Allston Street",-71.137881,42.348649,14,"Boston University Central",-71.106902,42.350013
"216","2021-11-01",70126,70144,"Green-B",1,65829,66496,667,8,"Allston Street",-71.137881,42.348649,14,"Boston University Central",-71.106902,42.350013
"217","2021-11-01",70126,70144,"Green-B",1,64034,64966,932,8,"Allston Street",-71.137881,42.348649,14,"Boston University Central",-71.106902,42.350013
"218","2021-11-01",70126,70144,"Green-B",1,64261,65097,836,8,"Allston Street",-71.137881,42.348649,14,"Boston University Central",-71.106902,42.350013
"219","2021-11-01",70126,70144,"Green-B",1,65227,66069,842,8,"Allston Street",-71.137881,42.348649,14,"Boston University Central",-71.106902,42.350013
"220","2021-11-01",70126,70144,"Green-B",1,56451,57275,824,8,"Allston Street",-71.137881,42.348649,14,"Boston University Central",-71.106902,42.350013
"221","2021-11-01",70126,70144,"Green-B",1,55857,56794,937,8,"Allston Street",-71.137881,42.348649,14,"Boston University Central",-71.106902,42.350013
"222","2021-11-01",70126,70144,"Green-B",1,55133,55952,819,8,"Allston Street",-71.137881,42.348649,14,"Boston University Central",-71.106902,42.350013
"223","2021-11-01",70126,70144,"Green-B",1,49893,50560,667,8,"Allston Street",-71.137881,42.348649,14,"Boston University Central",-71.106902,42.350013
"224","2021-11-01",70126,70144,"Green-B",1,51058,52014,956,8,"Allston Street",-71.137881,42.348649,14,"Boston University Central",-71.106902,42.350013
"225","2021-11-01",70126,70144,"Green-B",1,50326,51107,781,8,"Allston Street",-71.137881,42.348649,14,"Boston University Central",-71.106902,42.350013
"226","2021-11-01",70126,70144,"Green-B",1,33516,34285,769,8,"Allston Street",-71.137881,42.348649,14,"Boston University Central",-71.106902,42.350013
"227","2021-11-01",70126,70144,"Green-B",1,34118,34941,823,8,"Allston Street",-71.137881,42.348649,14,"Boston University Central",-71.106902,42.350013
"228","2021-11-01",70126,70144,"Green-B",1,34002,34610,608,8,"Allston Street",-71.137881,42.348649,14,"Boston University Central",-71.106902,42.350013
"229","2021-11-01",70126,70144,"Green-B",1,35212,35831,619,8,"Allston Street",-71.137881,42.348649,14,"Boston University Central",-71.106902,42.350013
"230","2021-11-01",70126,70144,"Green-B",1,34608,35353,745,8,"Allston Street",-71.137881,42.348649,14,"Boston University Central",-71.106902,42.350013
"231","2021-11-01",70126,70144,"Green-B",1,43966,44849,883,8,"Allston Street",-71.137881,42.348649,14,"Boston University Central",-71.106902,42.350013
"232","2021-11-01",70126,70144,"Green-B",1,43014,43844,830,8,"Allston Street",-71.137881,42.348649,14,"Boston University Central",-71.106902,42.350013
"233","2021-11-01",70126,70144,"Green-B",1,42517,43407,890,8,"Allston Street",-71.137881,42.348649,14,"Boston University Central",-71.106902,42.350013
"234","2021-11-01",70126,70144,"Green-B",1,31842,32737,895,8,"Allston Street",-71.137881,42.348649,14,"Boston University Central",-71.106902,42.350013
"235","2021-11-01",70126,70144,"Green-B",1,33403,33974,571,8,"Allston Street",-71.137881,42.348649,14,"Boston University Central",-71.106902,42.350013
"236","2021-11-01",70126,70144,"Green-B",1,32806,33631,825,8,"Allston Street",-71.137881,42.348649,14,"Boston University Central",-71.106902,42.350013
"237","2021-11-01",70126,70144,"Green-B",1,32459,33307,848,8,"Allston Street",-71.137881,42.348649,14,"Boston University Central",-71.106902,42.350013
"238","2021-11-01",70126,70144,"Green-B",1,31363,32307,944,8,"Allston Street",-71.137881,42.348649,14,"Boston University Central",-71.106902,42.350013
"239","2021-11-01",70126,70144,"Green-B",1,31011,31648,637,8,"Allston Street",-71.137881,42.348649,14,"Boston University Central",-71.106902,42.350013
"240","2021-11-01",70126,70144,"Green-B",1,30174,30944,770,8,"Allston Street",-71.137881,42.348649,14,"Boston University Central",-71.106902,42.350013
"241","2021-11-01",70126,70144,"Green-B",1,30522,31207,685,8,"Allston Street",-71.137881,42.348649,14,"Boston University Central",-71.106902,42.350013
"242","2021-11-01",70126,70144,"Green-B",1,22844,23307,463,8,"Allston Street",-71.137881,42.348649,14,"Boston University Central",-71.106902,42.350013
"243","2021-11-01",70126,70144,"Green-B",1,21255,22404,1149,8,"Allston Street",-71.137881,42.348649,14,"Boston University Central",-71.106902,42.350013
"244","2021-11-01",70126,70144,"Green-B",1,22402,23063,661,8,"Allston Street",-71.137881,42.348649,14,"Boston University Central",-71.106902,42.350013
"245","2021-11-01",70126,70144,"Green-B",1,21888,22627,739,8,"Allston Street",-71.137881,42.348649,14,"Boston University Central",-71.106902,42.350013
"246","2021-11-01",70126,70144,"Green-B",1,20483,21066,583,8,"Allston Street",-71.137881,42.348649,14,"Boston University Central",-71.106902,42.350013
"247","2021-11-01",70126,70144,"Green-B",1,19939,20516,577,8,"Allston Street",-71.137881,42.348649,14,"Boston University Central",-71.106902,42.350013
"248","2021-11-01",70126,70144,"Green-B",1,20053,20715,662,8,"Allston Street",-71.137881,42.348649,14,"Boston University Central",-71.106902,42.350013
"249","2021-11-01",70126,70144,"Green-B",1,69907,70574,667,8,"Allston Street",-71.137881,42.348649,14,"Boston University Central",-71.106902,42.350013
"250","2021-11-01",70126,70144,"Green-B",1,70663,71552,889,8,"Allston Street",-71.137881,42.348649,14,"Boston University Central",-71.106902,42.350013
"251","2021-11-01",70126,70144,"Green-B",1,70574,71446,872,8,"Allston Street",-71.137881,42.348649,14,"Boston University Central",-71.106902,42.350013
"252","2021-12-01",70126,70144,"Green-B",1,79672,80363,691,8,"Allston Street",-71.137881,42.348649,14,"Boston University Central",-71.106902,42.350013
"253","2021-12-01",70126,70144,"Green-B",1,78711,79258,547,8,"Allston Street",-71.137881,42.348649,14,"Boston University Central",-71.106902,42.350013
"254","2021-12-01",70126,70144,"Green-B",1,84634,85110,476,8,"Allston Street",-71.137881,42.348649,14,"Boston University Central",-71.106902,42.350013
"255","2021-12-01",70126,70144,"Green-B",1,85712,86181,469,8,"Allston Street",-71.137881,42.348649,14,"Boston University Central",-71.106902,42.350013
"256","2021-12-01",70126,70144,"Green-B",1,86289,87305,1016,8,"Allston Street",-71.137881,42.348649,14,"Boston University Central",-71.106902,42.350013
"257","2021-12-01",70126,70144,"Green-B",1,88132,88830,698,8,"Allston Street",-71.137881,42.348649,14,"Boston University Central",-71.106902,42.350013
"258","2021-12-01",70126,70144,"Green-B",1,88028,88616,588,8,"Allston Street",-71.137881,42.348649,14,"Boston University Central",-71.106902,42.350013
"259","2021-12-01",70126,70144,"Green-B",1,28612,29443,831,8,"Allston Street",-71.137881,42.348649,14,"Boston University Central",-71.106902,42.350013
"260","2021-12-01",70126,70144,"Green-B",1,28481,29130,649,8,"Allston Street",-71.137881,42.348649,14,"Boston University Central",-71.106902,42.350013
"261","2021-12-01",70126,70144,"Green-B",1,28144,28890,746,8,"Allston Street",-71.137881,42.348649,14,"Boston University Central",-71.106902,42.350013
"262","2021-12-01",70126,70144,"Green-B",1,56827,57591,764,8,"Allston Street",-71.137881,42.348649,14,"Boston University Central",-71.106902,42.350013
"263","2021-12-01",70126,70144,"Green-B",1,56352,57162,810,8,"Allston Street",-71.137881,42.348649,14,"Boston University Central",-71.106902,42.350013
"264","2021-12-01",70126,70144,"Green-B",1,71753,72716,963,8,"Allston Street",-71.137881,42.348649,14,"Boston University Central",-71.106902,42.350013
"265","2021-12-01",70126,70144,"Green-B",1,71563,72556,993,8,"Allston Street",-71.137881,42.348649,14,"Boston University Central",-71.106902,42.350013
"266","2021-12-01",70126,70144,"Green-B",1,49962,50671,709,8,"Allston Street",-71.137881,42.348649,14,"Boston University Central",-71.106902,42.350013
"267","2021-12-01",70126,70144,"Green-B",1,50964,51661,697,8,"Allston Street",-71.137881,42.348649,14,"Boston University Central",-71.106902,42.350013
"268","2021-12-01",70126,70144,"Green-B",1,50263,51098,835,8,"Allston Street",-71.137881,42.348649,14,"Boston University Central",-71.106902,42.350013
"269","2021-12-01",70126,70144,"Green-B",1,46552,47214,662,8,"Allston Street",-71.137881,42.348649,14,"Boston University Central",-71.106902,42.350013
"270","2021-12-01",70126,70144,"Green-B",1,46123,46814,691,8,"Allston Street",-71.137881,42.348649,14,"Boston University Central",-71.106902,42.350013
"271","2021-12-01",70126,70144,"Green-B",1,47543,48468,925,8,"Allston Street",-71.137881,42.348649,14,"Boston University Central",-71.106902,42.350013
"272","2021-12-01",70126,70144,"Green-B",1,47337,48043,706,8,"Allston Street",-71.137881,42.348649,14,"Boston University Central",-71.106902,42.350013
"273","2021-12-01",70126,70144,"Green-B",1,48539,49249,710,8,"Allston Street",-71.137881,42.348649,14,"Boston University Central",-71.106902,42.350013
"274","2021-12-01",70126,70144,"Green-B",1,49421,50112,691,8,"Allston Street",-71.137881,42.348649,14,"Boston University Central",-71.106902,42.350013
"275","2021-12-01",70126,70144,"Green-B",1,47985,48804,819,8,"Allston Street",-71.137881,42.348649,14,"Boston University Central",-71.106902,42.350013
"276","2021-12-01",70126,70144,"Green-B",1,77387,78048,661,8,"Allston Street",-71.137881,42.348649,14,"Boston University Central",-71.106902,42.350013
"277","2021-12-01",70126,70144,"Green-B",1,76723,77530,807,8,"Allston Street",-71.137881,42.348649,14,"Boston University Central",-71.106902,42.350013
"278","2021-12-01",70126,70144,"Green-B",1,77955,78718,763,8,"Allston Street",-71.137881,42.348649,14,"Boston University Central",-71.106902,42.350013
"279","2021-12-01",70126,70144,"Green-B",1,82638,83328,690,8,"Allston Street",-71.137881,42.348649,14,"Boston University Central",-71.106902,42.350013
"280","2021-12-01",70126,70144,"Green-B",1,83315,83934,619,8,"Allston Street",-71.137881,42.348649,14,"Boston University Central",-71.106902,42.350013
"281","2021-12-01",70126,70144,"Green-B",1,83978,84525,547,8,"Allston Street",-71.137881,42.348649,14,"Boston University Central",-71.106902,42.350013
"282","2021-12-01",70126,70144,"Green-B",1,69877,70694,817,8,"Allston Street",-71.137881,42.348649,14,"Boston University Central",-71.106902,42.350013
"283","2021-12-01",70126,70144,"Green-B",1,71080,71669,589,8,"Allston Street",-71.137881,42.348649,14,"Boston University Central",-71.106902,42.350013
"284","2021-12-01",70126,70144,"Green-B",1,75269,76050,781,8,"Allston Street",-71.137881,42.348649,14,"Boston University Central",-71.106902,42.350013
"285","2021-12-01",70126,70144,"Green-B",1,76294,76937,643,8,"Allston Street",-71.137881,42.348649,14,"Boston University Central",-71.106902,42.350013
"286","2021-12-01",70126,70144,"Green-B",1,19054,19643,589,8,"Allston Street",-71.137881,42.348649,14,"Boston University Central",-71.106902,42.350013
"287","2021-12-01",70126,70144,"Green-B",1,24392,25114,722,8,"Allston Street",-71.137881,42.348649,14,"Boston University Central",-71.106902,42.350013
"288","2021-12-01",70126,70144,"Green-B",1,23558,24261,703,8,"Allston Street",-71.137881,42.348649,14,"Boston University Central",-71.106902,42.350013
"289","2021-12-01",70126,70144,"Green-B",1,58514,59494,980,8,"Allston Street",-71.137881,42.348649,14,"Boston University Central",-71.106902,42.350013
"290","2021-12-01",70126,70144,"Green-B",1,59590,60270,680,8,"Allston Street",-71.137881,42.348649,14,"Boston University Central",-71.106902,42.350013
"291","2021-12-01",70126,70144,"Green-B",1,60442,61116,674,8,"Allston Street",-71.137881,42.348649,14,"Boston University Central",-71.106902,42.350013
"292","2021-12-01",70126,70144,"Green-B",1,59941,60753,812,8,"Allston Street",-71.137881,42.348649,14,"Boston University Central",-71.106902,42.350013
"293","2021-12-01",70126,70144,"Green-B",1,59105,59911,806,8,"Allston Street",-71.137881,42.348649,14,"Boston University Central",-71.106902,42.350013
"294","2021-12-01",70126,70144,"Green-B",1,58750,59606,856,8,"Allston Street",-71.137881,42.348649,14,"Boston University Central",-71.106902,42.350013
"295","2021-12-01",70126,70144,"Green-B",1,63186,63991,805,8,"Allston Street",-71.137881,42.348649,14,"Boston University Central",-71.106902,42.350013
"296","2021-12-01",70126,70144,"Green-B",1,63560,64317,757,8,"Allston Street",-71.137881,42.348649,14,"Boston University Central",-71.106902,42.350013
"297","2021-12-01",70126,70144,"Green-B",1,63670,64530,860,8,"Allston Street",-71.137881,42.348649,14,"Boston University Central",-71.106902,42.350013
"298","2021-12-01",70126,70144,"Green-B",1,64030,64967,937,8,"Allston Street",-71.137881,42.348649,14,"Boston University Central",-71.106902,42.350013
"299","2021-12-01",70126,70144,"Green-B",1,65474,66189,715,8,"Allston Street",-71.137881,42.348649,14,"Boston University Central",-71.106902,42.350013
"300","2021-12-01",70126,70144,"Green-B",1,64276,65515,1239,8,"Allston Street",-71.137881,42.348649,14,"Boston University Central",-71.106902,42.350013
"301","2021-12-01",70126,70144,"Green-B",1,19383,19948,565,8,"Allston Street",-71.137881,42.348649,14,"Boston University Central",-71.106902,42.350013
"302","2021-12-01",70126,70144,"Green-B",1,20041,20606,565,8,"Allston Street",-71.137881,42.348649,14,"Boston University Central",-71.106902,42.350013
"303","2021-12-01",70126,70144,"Green-B",1,20523,21065,542,8,"Allston Street",-71.137881,42.348649,14,"Boston University Central",-71.106902,42.350013
"304","2021-12-01",70126,70144,"Green-B",1,81871,82574,703,8,"Allston Street",-71.137881,42.348649,14,"Boston University Central",-71.106902,42.350013
"305","2021-12-01",70126,70144,"Green-B",1,81427,82160,733,8,"Allston Street",-71.137881,42.348649,14,"Boston University Central",-71.106902,42.350013
"306","2021-12-01",70126,70144,"Green-B",1,80438,81015,577,8,"Allston Street",-71.137881,42.348649,14,"Boston University Central",-71.106902,42.350013
"307","2021-12-01",70126,70144,"Green-B",1,39189,39786,597,8,"Allston Street",-71.137881,42.348649,14,"Boston University Central",-71.106902,42.350013
"308","2021-12-01",70126,70144,"Green-B",1,39511,40449,938,8,"Allston Street",-71.137881,42.348649,14,"Boston University Central",-71.106902,42.350013
"309","2021-12-01",70126,70144,"Green-B",1,39631,40569,938,8,"Allston Street",-71.137881,42.348649,14,"Boston University Central",-71.106902,42.350013
"310","2021-12-01",70126,70144,"Green-B",1,40064,40977,913,8,"Allston Street",-71.137881,42.348649,14,"Boston University Central",-71.106902,42.350013
"311","2021-12-01",70126,70144,"Green-B",1,41170,41921,751,8,"Allston Street",-71.137881,42.348649,14,"Boston University Central",-71.106902,42.350013
"312","2021-12-01",70126,70144,"Green-B",1,40724,41554,830,8,"Allston Street",-71.137881,42.348649,14,"Boston University Central",-71.106902,42.350013
"313","2021-12-01",70126,70144,"Green-B",1,41727,42515,788,8,"Allston Street",-71.137881,42.348649,14,"Boston University Central",-71.106902,42.350013
"314","2021-12-01",70126,70144,"Green-B",1,25481,26365,884,8,"Allston Street",-71.137881,42.348649,14,"Boston University Central",-71.106902,42.350013
"315","2021-12-01",70126,70144,"Green-B",1,25240,26003,763,8,"Allston Street",-71.137881,42.348649,14,"Boston University Central",-71.106902,42.350013
"316","2021-12-01",70126,70144,"Green-B",1,24875,25484,609,8,"Allston Street",-71.137881,42.348649,14,"Boston University Central",-71.106902,42.350013
"317","2021-12-01",70126,70144,"Green-B",1,26097,26686,589,8,"Allston Street",-71.137881,42.348649,14,"Boston University Central",-71.106902,42.350013
"318","2021-12-01",70126,70144,"Green-B",1,52823,53640,817,8,"Allston Street",-71.137881,42.348649,14,"Boston University Central",-71.106902,42.350013
"319","2021-12-01",70126,70144,"Green-B",1,52519,53540,1021,8,"Allston Street",-71.137881,42.348649,14,"Boston University Central",-71.106902,42.350013
"320","2021-12-01",70126,70144,"Green-B",1,51289,52419,1130,8,"Allston Street",-71.137881,42.348649,14,"Boston University Central",-71.106902,42.350013
"321","2021-12-01",70126,70144,"Green-B",1,53160,53948,788,8,"Allston Street",-71.137881,42.348649,14,"Boston University Central",-71.106902,42.350013
"322","2021-12-01",70126,70144,"Green-B",1,54927,55752,825,8,"Allston Street",-71.137881,42.348649,14,"Boston University Central",-71.106902,42.350013
"323","2021-12-01",70126,70144,"Green-B",1,53739,54538,799,8,"Allston Street",-71.137881,42.348649,14,"Boston University Central",-71.106902,42.350013
"324","2021-12-01",70126,70144,"Green-B",1,54167,54956,789,8,"Allston Street",-71.137881,42.348649,14,"Boston University Central",-71.106902,42.350013
"325","2021-12-01",70126,70144,"Green-B",1,54548,55285,737,8,"Allston Street",-71.137881,42.348649,14,"Boston University Central",-71.106902,42.350013
"326","2021-12-01",70126,70144,"Green-B",1,21149,21852,703,8,"Allston Street",-71.137881,42.348649,14,"Boston University Central",-71.106902,42.350013
"327","2021-12-01",70126,70144,"Green-B",1,22241,22939,698,8,"Allston Street",-71.137881,42.348649,14,"Boston University Central",-71.106902,42.350013
"328","2021-12-01",70126,70144,"Green-B",1,22004,22743,739,8,"Allston Street",-71.137881,42.348649,14,"Boston University Central",-71.106902,42.350013
"329","2021-12-01",70126,70144,"Green-B",1,33763,34730,967,8,"Allston Street",-71.137881,42.348649,14,"Boston University Central",-71.106902,42.350013
"330","2021-12-01",70126,70144,"Green-B",1,34606,35375,769,8,"Allston Street",-71.137881,42.348649,14,"Boston University Central",-71.106902,42.350013
"331","2021-12-01",70126,70144,"Green-B",1,34372,35178,806,8,"Allston Street",-71.137881,42.348649,14,"Boston University Central",-71.106902,42.350013
"332","2021-12-01",70126,70144,"Green-B",1,35076,35833,757,8,"Allston Street",-71.137881,42.348649,14,"Boston University Central",-71.106902,42.350013
"333","2021-12-01",70126,70144,"Green-B",1,42595,43304,709,8,"Allston Street",-71.137881,42.348649,14,"Boston University Central",-71.106902,42.350013
"334","2021-12-01",70126,70144,"Green-B",1,43030,43722,692,8,"Allston Street",-71.137881,42.348649,14,"Boston University Central",-71.106902,42.350013
"335","2021-12-01",70126,70144,"Green-B",1,44240,44943,703,8,"Allston Street",-71.137881,42.348649,14,"Boston University Central",-71.106902,42.350013
"336","2021-12-01",70126,70144,"Green-B",1,43812,44636,824,8,"Allston Street",-71.137881,42.348649,14,"Boston University Central",-71.106902,42.350013
"337","2021-12-01",70126,70144,"Green-B",1,36876,37692,816,8,"Allston Street",-71.137881,42.348649,14,"Boston University Central",-71.106902,42.350013
"338","2021-12-01",70126,70144,"Green-B",1,36047,36897,850,8,"Allston Street",-71.137881,42.348649,14,"Boston University Central",-71.106902,42.350013
"339","2021-12-01",70126,70144,"Green-B",1,36439,37161,722,8,"Allston Street",-71.137881,42.348649,14,"Boston University Central",-71.106902,42.350013
"340","2021-12-01",70126,70144,"Green-B",1,44795,45498,703,8,"Allston Street",-71.137881,42.348649,14,"Boston University Central",-71.106902,42.350013
"341","2021-12-01",70126,70144,"Green-B",1,67269,67942,673,8,"Allston Street",-71.137881,42.348649,14,"Boston University Central",-71.106902,42.350013
"342","2021-12-01",70126,70144,"Green-B",1,65827,66824,997,8,"Allston Street",-71.137881,42.348649,14,"Boston University Central",-71.106902,42.350013
"343","2021-12-01",70126,70144,"Green-B",1,66547,67275,728,8,"Allston Street",-71.137881,42.348649,14,"Boston University Central",-71.106902,42.350013
"344","2021-12-01",70126,70144,"Green-B",1,65730,66633,903,8,"Allston Street",-71.137881,42.348649,14,"Boston University Central",-71.106902,42.350013
"345","2021-12-01",70126,70144,"Green-B",1,68230,69029,799,8,"Allston Street",-71.137881,42.348649,14,"Boston University Central",-71.106902,42.350013
"346","2021-12-01",70126,70144,"Green-B",1,67870,68618,748,8,"Allston Street",-71.137881,42.348649,14,"Boston University Central",-71.106902,42.350013
"347","2021-12-01",70126,70144,"Green-B",1,68802,70022,1220,8,"Allston Street",-71.137881,42.348649,14,"Boston University Central",-71.106902,42.350013
"348","2021-12-01",70126,70144,"Green-B",1,68350,69144,794,8,"Allston Street",-71.137881,42.348649,14,"Boston University Central",-71.106902,42.350013
"349","2021-12-01",70126,70144,"Green-B",1,38202,38917,715,8,"Allston Street",-71.137881,42.348649,14,"Boston University Central",-71.106902,42.350013
"350","2021-12-01",70126,70144,"Green-B",1,37827,38554,727,8,"Allston Street",-71.137881,42.348649,14,"Boston University Central",-71.106902,42.350013
"351","2021-12-01",70126,70144,"Green-B",1,37203,37896,693,8,"Allston Street",-71.137881,42.348649,14,"Boston University Central",-71.106902,42.350013
"352","2021-12-01",70126,70144,"Green-B",1,32802,33494,692,8,"Allston Street",-71.137881,42.348649,14,"Boston University Central",-71.106902,42.350013
"353","2021-12-01",70126,70144,"Green-B",1,33399,34169,770,8,"Allston Street",-71.137881,42.348649,14,"Boston University Central",-71.106902,42.350013
"354","2021-12-01",70126,70144,"Green-B",1,32555,33289,734,8,"Allston Street",-71.137881,42.348649,14,"Boston University Central",-71.106902,42.350013
"355","2021-12-01",70126,70144,"Green-B",1,32793,33484,691,8,"Allston Street",-71.137881,42.348649,14,"Boston University Central",-71.106902,42.350013
"356","2021-12-01",70126,70144,"Green-B",1,33296,33849,553,8,"Allston Street",-71.137881,42.348649,14,"Boston University Central",-71.106902,42.350013
"357","2021-12-01",70126,70144,"Green-B",1,31979,32738,759,8,"Allston Street",-71.137881,42.348649,14,"Boston University Central",-71.106902,42.350013
"358","2021-12-01",70126,70144,"Green-B",1,57544,58254,710,8,"Allston Street",-71.137881,42.348649,14,"Boston University Central",-71.106902,42.350013
"359","2021-12-01",70126,70144,"Green-B",1,26922,27685,763,8,"Allston Street",-71.137881,42.348649,14,"Boston University Central",-71.106902,42.350013
"360","2021-12-01",70126,70144,"Green-B",1,27172,28037,865,8,"Allston Street",-71.137881,42.348649,14,"Boston University Central",-71.106902,42.350013
"361","2021-12-01",70126,70144,"Green-B",1,27781,28466,685,8,"Allston Street",-71.137881,42.348649,14,"Boston University Central",-71.106902,42.350013
"362","2021-12-01",70126,70144,"Green-B",1,26691,27358,667,8,"Allston Street",-71.137881,42.348649,14,"Boston University Central",-71.106902,42.350013
"363","2021-12-01",70126,70144,"Green-B",1,73841,74532,691,8,"Allston Street",-71.137881,42.348649,14,"Boston University Central",-71.106902,42.350013
"364","2021-12-01",70126,70144,"Green-B",1,74501,75192,691,8,"Allston Street",-71.137881,42.348649,14,"Boston University Central",-71.106902,42.350013
"365","2021-12-01",70126,70144,"Green-B",1,73286,74093,807,8,"Allston Street",-71.137881,42.348649,14,"Boston University Central",-71.106902,42.350013
"366","2021-12-01",70126,70144,"Green-B",1,60921,61744,823,8,"Allston Street",-71.137881,42.348649,14,"Boston University Central",-71.106902,42.350013
"367","2021-12-01",70126,70144,"Green-B",1,61649,62549,900,8,"Allston Street",-71.137881,42.348649,14,"Boston University Central",-71.106902,42.350013
"368","2021-12-01",70126,70144,"Green-B",1,61869,62675,806,8,"Allston Street",-71.137881,42.348649,14,"Boston University Central",-71.106902,42.350013
"369","2021-12-01",70126,70144,"Green-B",1,31638,32383,745,8,"Allston Street",-71.137881,42.348649,14,"Boston University Central",-71.106902,42.350013
"370","2021-12-01",70126,70144,"Green-B",1,29954,30875,921,8,"Allston Street",-71.137881,42.348649,14,"Boston University Central",-71.106902,42.350013
"371","2021-12-01",70126,70144,"Green-B",1,30789,31637,848,8,"Allston Street",-71.137881,42.348649,14,"Boston University Central",-71.106902,42.350013
"372","2021-12-01",70126,70144,"Green-B",1,30063,31088,1025,8,"Allston Street",-71.137881,42.348649,14,"Boston University Central",-71.106902,42.350013
"373","2021-12-01",70126,70144,"Green-B",1,30280,31283,1003,8,"Allston Street",-71.137881,42.348649,14,"Boston University Central",-71.106902,42.350013
"374","2021-12-01",70126,70144,"Green-B",1,31363,32193,830,8,"Allston Street",-71.137881,42.348649,14,"Boston University Central",-71.106902,42.350013
